$GPGGA,235947,3540.7720002,N,13933.6827299,E,1,9,0.898,72.880,M,38.000,M,,*66
$GPGGA,000017,3540.7721590,N,13933.6830150,E,1,9,0.898,74.513,M,38.000,M,,*60
$GPGGA,000047,3540.7719847,N,13933.6827706,E,1,9,0.897,74.409,M,38.000,M,,*6F
$GPGGA,000117,3540.7716657,N,13933.6828920,E,1,9,0.896,72.446,M,38.000,M,,*62
$GPGGA,000147,3540.7715287,N,13933.6828676,E,1,9,0.896,72.600,M,38.000,M,,*61
$GPGGA,000217,3540.7719340,N,13933.6829952,E,1,9,0.895,74.080,M,38.000,M,,*62
$GPGGA,000247,3540.7717215,N,13933.6835543,E,1,9,0.894,73.594,M,38.000,M,,*6F
$GPGGA,000317,3540.7718787,N,13933.6826131,E,1,9,0.894,74.722,M,38.000,M,,*61
$GPGGA,000347,3540.7719441,N,13933.6831177,E,1,9,0.893,73.468,M,38.000,M,,*65
$GPGGA,000417,3540.7719736,N,13933.6836480,E,1,9,0.893,73.210,M,38.000,M,,*67
$GPGGA,000447,3540.7720462,N,13933.6831445,E,1,9,0.892,71.361,M,38.000,M,,*60
$GPGGA,000517,3540.7712225,N,13933.6833435,E,1,9,0.891,74.437,M,38.000,M,,*67
$GPGGA,000547,3540.7717855,N,13933.6830994,E,1,9,0.891,75.490,M,38.000,M,,*63
$GPGGA,000617,3540.7709916,N,13933.6829185,E,1,9,0.890,76.584,M,38.000,M,,*6A
$GPGGA,000647,3540.7717319,N,13933.6834281,E,1,9,0.890,75.596,M,38.000,M,,*6E
$GPGGA,000717,3540.7717123,N,13933.6829227,E,1,9,0.889,77.404,M,38.000,M,,*61
$GPGGA,000747,3540.7721240,N,13933.6840581,E,1,9,0.889,75.510,M,38.000,M,,*65
$GPGGA,000817,3540.7711230,N,13933.6828642,E,1,9,0.888,75.410,M,38.000,M,,*69
$GPGGA,000847,3540.7721392,N,13933.6828116,E,1,9,0.888,76.461,M,38.000,M,,*65
$GPGGA,000917,3540.7713837,N,13933.6834598,E,1,9,0.887,75.787,M,38.000,M,,*6C
$GPGGA,000947,3540.7717338,N,13933.6828642,E,1,9,0.887,74.849,M,38.000,M,,*6C
$GPGGA,001017,3540.7717777,N,13933.6829828,E,1,9,0.886,75.690,M,38.000,M,,*67
$GPGGA,001047,3540.7719644,N,13933.6830155,E,1,9,0.886,75.194,M,38.000,M,,*65
$GPGGA,001117,3540.7719186,N,13933.6827998,E,1,9,0.886,74.858,M,38.000,M,,*6F
$GPGGA,001147,3540.7715835,N,13933.6828987,E,1,9,0.885,75.782,M,38.000,M,,*6C
$GPGGA,001217,3540.7713257,N,13933.6823790,E,1,9,0.885,75.037,M,38.000,M,,*68
$GPGGA,001247,3540.7715106,N,13933.6830883,E,1,9,0.884,75.137,M,38.000,M,,*63
$GPGGA,001317,3540.7719544,N,13933.6830469,E,1,9,0.884,75.205,M,38.000,M,,*63
$GPGGA,001347,3540.7720172,N,13933.6831825,E,1,9,0.884,74.933,M,38.000,M,,*67
$GPGGA,001417,3540.7718193,N,13933.6837853,E,1,9,0.883,75.690,M,38.000,M,,*66
$GPGGA,001447,3540.7722056,N,13933.6828030,E,1,9,0.883,74.303,M,38.000,M,,*6F
$GPGGA,001517,3540.7718179,N,13933.6831675,E,1,9,0.883,75.660,M,38.000,M,,*60
$GPGGA,001547,3540.7718404,N,13933.6824866,E,1,8,1.066,74.965,M,38.000,M,,*6A
$GPGGA,001617,3540.7716772,N,13933.6831680,E,1,9,0.882,76.984,M,38.000,M,,*6D
$GPGGA,001647,3540.7714757,N,13933.6830909,E,1,9,0.882,76.633,M,38.000,M,,*61
$GPGGA,001717,3540.7708445,N,13933.6831516,E,1,9,0.881,74.454,M,38.000,M,,*69
$GPGGA,001747,3540.7719915,N,13933.6833518,E,1,9,0.881,75.259,M,38.000,M,,*62
$GPGGA,001817,3540.7717432,N,13933.6830876,E,1,9,0.881,75.049,M,38.000,M,,*6B
$GPGGA,001847,3540.7719851,N,13933.6829840,E,1,9,0.881,76.574,M,38.000,M,,*6C
$GPGGA,001917,3540.7724018,N,13933.6833485,E,1,9,0.881,74.109,M,38.000,M,,*61
$GPGGA,001947,3540.7720961,N,13933.6824080,E,1,9,0.880,75.762,M,38.000,M,,*6B
$GPGGA,002017,3540.7720027,N,13933.6831491,E,1,9,0.880,74.312,M,38.000,M,,*6D
$GPGGA,002047,3540.7711959,N,13933.6830320,E,1,9,0.880,76.754,M,38.000,M,,*62
$GPGGA,002117,3540.7724849,N,13933.6830040,E,1,9,0.880,74.882,M,38.000,M,,*63
$GPGGA,002147,3540.7716134,N,13933.6831836,E,1,9,0.880,75.213,M,38.000,M,,*6F
$GPGGA,002217,3540.7714570,N,13933.6826515,E,1,9,0.879,75.092,M,38.000,M,,*68
$GPGGA,002247,3540.7722018,N,13933.6833728,E,1,9,0.879,75.217,M,38.000,M,,*64
$GPGGA,002317,3540.7722238,N,13933.6833585,E,1,9,0.879,75.438,M,38.000,M,,*6E
$GPGGA,002347,3540.7718006,N,13933.6832481,E,1,9,0.879,75.802,M,38.000,M,,*6C
$GPGGA,002417,3540.7722029,N,13933.6828803,E,1,9,0.879,76.943,M,38.000,M,,*60
$GPGGA,002447,3540.7726526,N,13933.6834310,E,1,9,0.879,74.986,M,38.000,M,,*64
$GPGGA,002517,3540.7717780,N,13933.6828853,E,1,9,0.879,73.558,M,38.000,M,,*65
$GPGGA,002547,3540.7723157,N,13933.6832047,E,1,9,0.879,75.182,M,38.000,M,,*68
$GPGGA,002617,3540.7709822,N,13933.6827550,E,1,9,0.878,74.012,M,38.000,M,,*62
$GPGGA,002647,3540.7714800,N,13933.6832923,E,1,9,0.878,76.072,M,38.000,M,,*63
$GPGGA,002717,3540.7711858,N,13933.6833783,E,1,9,0.878,76.038,M,38.000,M,,*64
$GPGGA,002747,3540.7705274,N,13933.6831201,E,1,9,0.878,71.638,M,38.000,M,,*6C
$GPGGA,002817,3540.7712837,N,13933.6831555,E,1,9,0.878,74.704,M,38.000,M,,*60
$GPGGA,002847,3540.7712622,N,13933.6831466,E,1,8,1.177,74.684,M,38.000,M,,*61
$GPGGA,002917,3540.7722751,N,13933.6826293,E,1,9,0.878,75.062,M,38.000,M,,*60
$GPGGA,002947,3540.7713498,N,13933.6828516,E,1,9,0.878,74.554,M,38.000,M,,*64
$GPGGA,003017,3540.7699320,N,13933.6824030,E,1,9,0.878,71.622,M,38.000,M,,*64
$GPGGA,003047,3540.7708771,N,13933.6825771,E,1,9,0.878,72.363,M,38.000,M,,*68
$GPGGA,003117,3540.7705796,N,13933.6840087,E,1,9,0.878,70.333,M,38.000,M,,*62
$GPGGA,003147,3540.7712226,N,13933.6830475,E,1,8,1.189,74.965,M,38.000,M,,*6B
$GPGGA,003217,3540.7687822,N,13933.6832625,E,1,9,0.878,68.836,M,38.000,M,,*66
$GPGGA,003247,3540.7712034,N,13933.6838134,E,1,8,1.193,73.701,M,38.000,M,,*61
$GPGGA,003317,3540.7715254,N,13933.6828022,E,1,8,1.195,75.587,M,38.000,M,,*6D
$GPGGA,003347,3540.7712674,N,13933.6837149,E,1,8,1.197,72.589,M,38.000,M,,*60
$GPGGA,003417,3540.7715412,N,13933.6830928,E,1,8,1.198,74.456,M,38.000,M,,*65
$GPGGA,003447,3540.7717724,N,13933.6829477,E,1,8,1.200,74.863,M,38.000,M,,*63
$GPGGA,003517,3540.7713342,N,13933.6832084,E,1,8,1.201,72.184,M,38.000,M,,*62
$GPGGA,003547,3540.7713172,N,13933.6831794,E,1,8,1.203,74.734,M,38.000,M,,*6A
$GPGGA,003617,3540.7719586,N,13933.6826815,E,1,8,1.204,75.437,M,38.000,M,,*6F
$GPGGA,003647,3540.7713718,N,13933.6830804,E,1,8,1.206,72.338,M,38.000,M,,*6F
$GPGGA,003717,3540.7712372,N,13933.6835962,E,1,8,1.207,73.911,M,38.000,M,,*67
$GPGGA,003747,3540.7715972,N,13933.6826446,E,1,8,1.208,74.894,M,38.000,M,,*62
$GPGGA,003817,3540.7712657,N,13933.6844167,E,1,8,1.210,73.013,M,38.000,M,,*6C
$GPGGA,003847,3540.7709566,N,13933.6835732,E,1,8,1.211,72.242,M,38.000,M,,*64
$GPGGA,003917,3540.7708973,N,13933.6835195,E,1,8,1.212,74.133,M,38.000,M,,*62
$GPGGA,003947,3540.7712164,N,13933.6832949,E,1,8,1.213,72.896,M,38.000,M,,*6D
$GPGGA,004017,3540.7711986,N,13933.6836445,E,1,8,1.214,72.994,M,38.000,M,,*60
$GPGGA,004047,3540.7712648,N,13933.6835207,E,1,8,1.214,71.353,M,38.000,M,,*6A
$GPGGA,004117,3540.7709315,N,13933.6836638,E,1,8,1.215,73.152,M,38.000,M,,*62
$GPGGA,004147,3540.7709665,N,13933.6842111,E,1,8,1.216,70.667,M,38.000,M,,*6B
$GPGGA,004217,3540.7709657,N,13933.6839798,E,1,8,1.217,71.438,M,38.000,M,,*6F
$GPGGA,004247,3540.7712978,N,13933.6835907,E,1,8,1.217,72.246,M,38.000,M,,*6A
$GPGGA,004317,3540.7714384,N,13933.6832328,E,1,8,1.218,75.091,M,38.000,M,,*61
$GPGGA,004347,3540.7713079,N,13933.6831761,E,1,8,1.218,71.870,M,38.000,M,,*6B
$GPGGA,004417,3540.7706499,N,13933.6840133,E,1,8,1.218,72.276,M,38.000,M,,*6F
$GPGGA,004447,3540.7709737,N,13933.6837907,E,1,8,1.219,72.592,M,38.000,M,,*61
$GPGGA,004517,3540.7713097,N,13933.6838714,E,1,8,1.219,71.401,M,38.000,M,,*68
$GPGGA,004547,3540.7709931,N,13933.6834791,E,1,8,1.219,70.046,M,38.000,M,,*64
$GPGGA,004617,3540.7711535,N,13933.6842800,E,1,8,1.219,69.400,M,38.000,M,,*6B
$GPGGA,004647,3540.7713054,N,13933.6833867,E,1,8,1.219,72.176,M,38.000,M,,*67
$GPGGA,004717,3540.7704599,N,13933.6847980,E,1,8,1.219,71.095,M,38.000,M,,*65
$GPGGA,004747,3540.7710709,N,13933.6839556,E,1,8,1.219,68.041,M,38.000,M,,*61
$GPGGA,004817,3540.7713390,N,13933.6840685,E,1,8,1.219,69.037,M,38.000,M,,*6F
$GPGGA,004847,3540.7714917,N,13933.6836985,E,1,8,1.218,68.773,M,38.000,M,,*61
$GPGGA,004917,3540.7706656,N,13933.6845432,E,1,8,1.218,69.210,M,38.000,M,,*68
$GPGGA,004947,3540.7709193,N,13933.6845756,E,1,8,1.218,65.452,M,38.000,M,,*61
$GPGGA,005017,3540.7713869,N,13933.6843295,E,1,8,1.217,67.780,M,38.000,M,,*66
$GPGGA,005047,3540.7708558,N,13933.6849176,E,1,8,1.217,67.317,M,38.000,M,,*68
$GPGGA,005117,3540.7710252,N,13933.6850486,E,1,8,1.216,65.789,M,38.000,M,,*6A
$GPGGA,005147,3540.7707278,N,13933.6844244,E,1,8,1.215,69.847,M,38.000,M,,*6E
$GPGGA,005217,3540.7713237,N,13933.6834830,E,1,8,1.215,71.195,M,38.000,M,,*67
$GPGGA,005247,3540.7702609,N,13933.6859519,E,1,8,1.214,61.921,M,38.000,M,,*61
$GPGGA,005317,3540.7712951,N,13933.6836968,E,1,7,1.310,70.240,M,38.000,M,,*63
$GPGGA,005347,3540.7704463,N,13933.6863593,E,1,8,1.212,61.581,M,38.000,M,,*63
$GPGGA,005417,3540.7736082,N,13933.6858131,E,1,9,0.933,64.907,M,38.000,M,,*60
$GPGGA,005447,3540.7746607,N,13933.6857819,E,1,9,0.934,64.419,M,38.000,M,,*60
$GPGGA,005517,3540.7724028,N,13933.6830168,E,1,8,1.006,71.238,M,38.000,M,,*6C
$GPGGA,005547,3540.7721077,N,13933.6828518,E,1,8,1.006,73.212,M,38.000,M,,*66
$GPGGA,005617,3540.7718853,N,13933.6839605,E,1,8,1.005,73.678,M,38.000,M,,*60
$GPGGA,005647,3540.7721812,N,13933.6834542,E,1,8,1.005,72.536,M,38.000,M,,*6F
$GPGGA,005717,3540.7717737,N,13933.6838858,E,1,8,1.005,71.887,M,38.000,M,,*68
$GPGGA,005747,3540.7721080,N,13933.6834418,E,1,8,1.005,73.041,M,38.000,M,,*67
$GPGGA,005817,3540.7719543,N,13933.6837290,E,1,8,1.004,73.634,M,38.000,M,,*6C
$GPGGA,005847,3540.7722072,N,13933.6832078,E,1,8,1.004,72.550,M,38.000,M,,*67
$GPGGA,005917,3540.7720507,N,13933.6832917,E,1,8,1.004,74.006,M,38.000,M,,*66
$GPGGA,005947,3540.7723956,N,13933.6831073,E,1,8,1.003,73.920,M,38.000,M,,*6D
$GPGGA,010017,3540.7723603,N,13933.6825879,E,1,8,1.003,72.079,M,38.000,M,,*69
$GPGGA,010047,3540.7722212,N,13933.6830195,E,1,8,1.003,72.521,M,38.000,M,,*6E
$GPGGA,010117,3540.7718805,N,13933.6835147,E,1,8,1.003,73.911,M,38.000,M,,*6B
$GPGGA,010147,3540.7718646,N,13933.6834577,E,1,8,1.002,72.484,M,38.000,M,,*60
$GPGGA,010217,3540.7717690,N,13933.6830317,E,1,8,1.002,73.274,M,38.000,M,,*6E
$GPGGA,010247,3540.7715131,N,13933.6833449,E,1,8,1.002,74.401,M,38.000,M,,*69
$GPGGA,010317,3540.7713799,N,13933.6834851,E,1,8,1.002,73.808,M,38.000,M,,*6F
$GPGGA,010347,3540.7723185,N,13933.6829554,E,1,8,1.001,73.507,M,38.000,M,,*67
$GPGGA,010417,3540.7715236,N,13933.6835241,E,1,8,1.001,73.196,M,38.000,M,,*69
$GPGGA,010447,3540.7717767,N,13933.6827806,E,1,8,1.001,71.654,M,38.000,M,,*6E
$GPGGA,010517,3540.7723509,N,13933.6828750,E,1,9,0.924,70.594,M,38.000,M,,*64
$GPGGA,010547,3540.7719460,N,13933.6830721,E,1,9,0.924,71.699,M,38.000,M,,*66
$GPGGA,010617,3540.7725543,N,13933.6829535,E,1,9,0.923,71.528,M,38.000,M,,*6E
$GPGGA,010647,3540.7720610,N,13933.6837104,E,1,9,0.923,71.674,M,38.000,M,,*68
$GPGGA,010717,3540.7719238,N,13933.6829424,E,1,9,0.922,71.462,M,38.000,M,,*64
$GPGGA,010747,3540.7730024,N,13933.6823389,E,1,9,0.921,72.838,M,38.000,M,,*6C
$GPGGA,010817,3540.7721630,N,13933.6827579,E,1,9,0.921,71.742,M,38.000,M,,*69
$GPGGA,010847,3540.7721179,N,13933.6830763,E,1,9,0.920,72.339,M,38.000,M,,*63
$GPGGA,010917,3540.7721063,N,13933.6829102,E,1,9,0.919,72.969,M,38.000,M,,*61
$GPGGA,010947,3540.7719789,N,13933.6833515,E,1,9,0.919,72.387,M,38.000,M,,*6F
$GPGGA,011017,3540.7719721,N,13933.6834020,E,1,9,0.918,72.409,M,38.000,M,,*64
$GPGGA,011047,3540.7718948,N,13933.6832434,E,1,9,0.917,73.777,M,38.000,M,,*62
$GPGGA,011117,3540.7716961,N,13933.6831357,E,1,9,0.917,73.661,M,38.000,M,,*64
$GPGGA,011147,3540.7720104,N,13933.6834757,E,1,9,0.916,73.667,M,38.000,M,,*69
$GPGGA,011217,3540.7724999,N,13933.6825629,E,1,9,0.915,73.538,M,38.000,M,,*65
$GPGGA,011247,3540.7721279,N,13933.6830057,E,1,9,0.915,73.183,M,38.000,M,,*6F
$GPGGA,011317,3540.7724709,N,13933.6829104,E,1,9,0.914,73.149,M,38.000,M,,*64
$GPGGA,011347,3540.7718520,N,13933.6831206,E,1,9,0.913,71.882,M,38.000,M,,*64
$GPGGA,011417,3540.7718823,N,13933.6831397,E,1,9,0.912,75.301,M,38.000,M,,*64
$GPGGA,011447,3540.7724259,N,13933.6828202,E,1,9,0.912,72.173,M,38.000,M,,*6C
$GPGGA,011517,3540.7717413,N,13933.6836546,E,1,9,0.911,72.391,M,38.000,M,,*65
$GPGGA,011547,3540.7718942,N,13933.6832538,E,1,9,0.910,70.967,M,38.000,M,,*6B
$GPGGA,011617,3540.7722432,N,13933.6829277,E,1,9,0.909,72.907,M,38.000,M,,*64
$GPGGA,011647,3540.7721219,N,13933.6828411,E,1,9,0.909,71.927,M,38.000,M,,*6B
$GPGGA,011717,3540.7716125,N,13933.6830801,E,1,9,0.908,72.413,M,38.000,M,,*6B
$GPGGA,011747,3540.7716049,N,13933.6833131,E,1,9,0.907,72.801,M,38.000,M,,*6C
$GPGGA,011817,3540.7720584,N,13933.6829290,E,1,9,0.906,71.997,M,38.000,M,,*68
$GPGGA,011847,3540.7719019,N,13933.6828433,E,1,9,0.905,71.622,M,38.000,M,,*6A
$GPGGA,011917,3540.7716818,N,13933.6829516,E,1,9,0.905,70.458,M,38.000,M,,*61
$GPGGA,011947,3540.7718621,N,13933.6824994,E,1,9,0.904,74.065,M,38.000,M,,*6A
$GPGGA,012017,3540.7717968,N,13933.6832263,E,1,9,0.903,73.351,M,38.000,M,,*68
$GPGGA,012047,3540.7718036,N,13933.6834737,E,1,9,0.902,74.356,M,38.000,M,,*63
$GPGGA,012117,3540.7719225,N,13933.6831601,E,1,9,0.901,72.983,M,38.000,M,,*60
$GPGGA,012147,3540.7717220,N,13933.6831837,E,1,9,0.900,70.890,M,38.000,M,,*65
$GPGGA,012217,3540.7720738,N,13933.6830413,E,1,9,0.900,72.867,M,38.000,M,,*6A
$GPGGA,012247,3540.7719805,N,13933.6835074,E,1,9,0.899,73.979,M,38.000,M,,*6A
$GPGGA,012317,3540.7722961,N,13933.6830213,E,1,9,0.898,70.591,M,38.000,M,,*6B
$GPGGA,012347,3540.7719121,N,13933.6833625,E,1,9,0.897,72.320,M,38.000,M,,*69
$GPGGA,012417,3540.7720976,N,13933.6831664,E,1,9,0.896,71.635,M,38.000,M,,*6F
$GPGGA,012447,3540.7719898,N,13933.6834151,E,1,9,0.895,71.950,M,38.000,M,,*6A
$GPGGA,012517,3540.7714849,N,13933.6832606,E,1,9,0.894,72.988,M,38.000,M,,*6B
$GPGGA,012547,3540.7722858,N,13933.6830738,E,1,9,0.894,72.137,M,38.000,M,,*69
$GPGGA,012617,3540.7719622,N,13933.6836633,E,1,9,0.893,71.465,M,38.000,M,,*6E
$GPGGA,012647,3540.7715892,N,13933.6834320,E,1,9,0.892,72.832,M,38.000,M,,*6B
$GPGGA,012717,3540.7720634,N,13933.6834414,E,1,9,0.891,71.782,M,38.000,M,,*6F
$GPGGA,012747,3540.7722266,N,13933.6831871,E,1,9,0.890,73.449,M,38.000,M,,*66
$GPGGA,012817,3540.7717381,N,13933.6834158,E,1,9,0.889,72.434,M,38.000,M,,*66
$GPGGA,012847,3540.7721817,N,13933.6829298,E,1,9,0.888,74.214,M,38.000,M,,*62
$GPGGA,012917,3540.7718807,N,13933.6834271,E,1,9,0.887,72.665,M,38.000,M,,*6D
$GPGGA,012947,3540.7721399,N,13933.6833014,E,1,9,0.886,72.397,M,38.000,M,,*61
$GPGGA,013017,3540.7717895,N,13933.6832477,E,1,9,0.886,72.364,M,38.000,M,,*62
$GPGGA,013047,3540.7718750,N,13933.6831528,E,1,9,0.885,72.112,M,38.000,M,,*66
$GPGGA,013117,3540.7720344,N,13933.6835243,E,1,9,0.884,72.927,M,38.000,M,,*69
$GPGGA,013147,3540.7721007,N,13933.6832003,E,1,9,0.883,73.185,M,38.000,M,,*6E
$GPGGA,013217,3540.7719239,N,13933.6840375,E,1,9,0.882,72.991,M,38.000,M,,*66
$GPGGA,013247,3540.7714031,N,13933.6835535,E,1,9,0.881,73.459,M,38.000,M,,*6F
$GPGGA,013317,3540.7716921,N,13933.6836902,E,1,9,0.880,72.350,M,38.000,M,,*64
$GPGGA,013347,3540.7718305,N,13933.6832815,E,1,9,0.879,73.537,M,38.000,M,,*60
$GPGGA,013417,3540.7720914,N,13933.6829772,E,1,9,0.878,72.531,M,38.000,M,,*61
$GPGGA,013447,3540.7723868,N,13933.6831661,E,1,9,0.877,71.493,M,38.000,M,,*62
$GPGGA,013517,3540.7718748,N,13933.6836686,E,1,9,0.877,71.237,M,38.000,M,,*65
$GPGGA,013547,3540.7720454,N,13933.6826904,E,1,9,0.876,70.898,M,38.000,M,,*6E
$GPGGA,013617,3540.7720158,N,13933.6829116,E,1,9,0.875,71.711,M,38.000,M,,*69
$GPGGA,013647,3540.7715904,N,13933.6833552,E,1,9,0.874,69.525,M,38.000,M,,*69
$GPGGA,013717,3540.7720008,N,13933.6832412,E,1,9,0.873,72.187,M,38.000,M,,*6B
$GPGGA,013747,3540.7722449,N,13933.6829634,E,1,9,0.872,70.928,M,38.000,M,,*6F
$GPGGA,013817,3540.7718097,N,13933.6838002,E,1,9,0.871,73.133,M,38.000,M,,*6A
$GPGGA,013847,3540.7723306,N,13933.6838961,E,1,9,0.870,72.317,M,38.000,M,,*64
$GPGGA,013917,3540.7718458,N,13933.6830235,E,1,9,0.869,71.232,M,38.000,M,,*6B
$GPGGA,013947,3540.7720063,N,13933.6832319,E,1,9,0.869,71.271,M,38.000,M,,*63
$GPGGA,014017,3540.7715092,N,13933.6836361,E,1,9,0.868,70.857,M,38.000,M,,*65
$GPGGA,014047,3540.7715780,N,13933.6834691,E,1,9,0.867,70.631,M,38.000,M,,*6D
$GPGGA,014117,3540.7719175,N,13933.6833778,E,1,9,0.866,71.322,M,38.000,M,,*6F
$GPGGA,014147,3540.7714882,N,13933.6829034,E,1,9,0.865,71.989,M,38.000,M,,*6A
$GPGGA,014217,3540.7719006,N,13933.6836595,E,1,9,0.864,72.233,M,38.000,M,,*6D
$GPGGA,014247,3540.7718107,N,13933.6839939,E,1,9,0.864,73.548,M,38.000,M,,*66
$GPGGA,014317,3540.7720664,N,13933.6839061,E,1,9,0.863,71.675,M,38.000,M,,*67
$GPGGA,014347,3540.7720497,N,13933.6838572,E,1,9,0.862,72.885,M,38.000,M,,*69
$GPGGA,014417,3540.7723418,N,13933.6839851,E,1,9,0.861,72.767,M,38.000,M,,*62
$GPGGA,014447,3540.7720329,N,13933.6839230,E,1,9,0.860,73.580,M,38.000,M,,*67
$GPGGA,014517,3540.7718841,N,13933.6834119,E,1,9,0.859,69.852,M,38.000,M,,*6B
$GPGGA,014547,3540.7722807,N,13933.6830564,E,1,9,0.859,71.056,M,38.000,M,,*6A
$GPGGA,014617,3540.7719484,N,13933.6831698,E,1,9,0.858,71.711,M,38.000,M,,*67
$GPGGA,014647,3540.7718830,N,13933.6831296,E,1,9,0.857,72.173,M,38.000,M,,*64
$GPGGA,014717,3540.7723409,N,13933.6840348,E,1,8,0.958,71.297,M,38.000,M,,*6F
$GPGGA,014747,3540.7721172,N,13933.6829560,E,1,9,0.856,71.414,M,38.000,M,,*61
$GPGGA,014817,3540.7724649,N,13933.6830567,E,1,9,0.855,69.610,M,38.000,M,,*62
$GPGGA,014847,3540.7723617,N,13933.6825458,E,1,9,0.854,69.418,M,38.000,M,,*69
$GPGGA,014917,3540.7723252,N,13933.6827697,E,1,9,0.853,70.217,M,38.000,M,,*6D
$GPGGA,014947,3540.7723282,N,13933.6829606,E,1,9,0.853,69.645,M,38.000,M,,*68
$GPGGA,015017,3540.7722240,N,13933.6822139,E,1,9,0.852,68.916,M,38.000,M,,*63
$GPGGA,015047,3540.7722750,N,13933.6826385,E,1,9,0.851,68.944,M,38.000,M,,*67
$GPGGA,015117,3540.7723391,N,13933.6832907,E,1,8,0.956,71.408,M,38.000,M,,*64
$GPGGA,015147,3540.7721409,N,13933.6833032,E,1,8,0.956,71.049,M,38.000,M,,*6A
$GPGGA,015217,3540.7719186,N,13933.6833188,E,1,8,0.955,71.131,M,38.000,M,,*68
$GPGGA,015247,3540.7724077,N,13933.6829146,E,1,8,0.955,71.743,M,38.000,M,,*66
$GPGGA,015317,3540.7724137,N,13933.6836367,E,1,8,0.955,71.466,M,38.000,M,,*6C
$GPGGA,015347,3540.7722647,N,13933.6831700,E,1,8,0.955,70.781,M,38.000,M,,*66
$GPGGA,015417,3540.7721677,N,13933.6835168,E,1,8,0.955,70.450,M,38.000,M,,*67
$GPGGA,015447,3540.7722485,N,13933.6832550,E,1,8,0.954,72.225,M,38.000,M,,*61
$GPGGA,015517,3540.7718804,N,13933.6836996,E,1,8,0.954,70.796,M,38.000,M,,*64
$GPGGA,015547,3540.7725374,N,13933.6838024,E,1,8,0.954,70.231,M,38.000,M,,*65
$GPGGA,015617,3540.7724361,N,13933.6830703,E,1,8,0.954,71.281,M,38.000,M,,*66
$GPGGA,015647,3540.7720777,N,13933.6832902,E,1,8,0.954,71.170,M,38.000,M,,*64
$GPGGA,015717,3540.7723518,N,13933.6836810,E,1,8,0.954,70.216,M,38.000,M,,*6C
$GPGGA,015747,3540.7728409,N,13933.6836180,E,1,8,0.953,71.335,M,38.000,M,,*65
$GPGGA,015817,3540.7722160,N,13933.6830843,E,1,8,0.953,69.600,M,38.000,M,,*65
$GPGGA,015847,3540.7723699,N,13933.6831573,E,1,8,0.953,70.773,M,38.000,M,,*62
$GPGGA,015917,3540.7720269,N,13933.6834407,E,1,8,0.953,68.727,M,38.000,M,,*61
$GPGGA,015947,3540.7720017,N,13933.6834489,E,1,8,0.953,70.473,M,38.000,M,,*62
$GPGGA,020017,3540.7725945,N,13933.6840177,E,1,8,0.953,69.992,M,38.000,M,,*6E
$GPGGA,020047,3540.7725276,N,13933.6838833,E,1,8,0.953,70.143,M,38.000,M,,*6A
$GPGGA,020117,3540.7720584,N,13933.6834737,E,1,8,0.952,71.053,M,38.000,M,,*66
$GPGGA,020147,3540.7719445,N,13933.6840777,E,1,8,0.952,70.721,M,38.000,M,,*61
$GPGGA,020217,3540.7724530,N,13933.6832303,E,1,8,0.952,68.343,M,38.000,M,,*61
$GPGGA,020247,3540.7727588,N,13933.6843444,E,1,8,0.952,71.351,M,38.000,M,,*6D
$GPGGA,020317,3540.7729089,N,13933.6839076,E,1,8,0.952,70.556,M,38.000,M,,*6B
$GPGGA,020347,3540.7725779,N,13933.6835220,E,1,8,0.952,70.972,M,38.000,M,,*6D
$GPGGA,020417,3540.7726852,N,13933.6836505,E,1,8,0.952,69.681,M,38.000,M,,*62
$GPGGA,020447,3540.7721835,N,13933.6837153,E,1,8,0.952,70.159,M,38.000,M,,*6D
$GPGGA,020517,3540.7726206,N,13933.6835452,E,1,8,0.952,69.472,M,38.000,M,,*66
$GPGGA,020547,3540.7721264,N,13933.6839558,E,1,8,0.952,69.634,M,38.000,M,,*67
$GPGGA,020617,3540.7726369,N,13933.6833896,E,1,8,0.952,70.460,M,38.000,M,,*64
$GPGGA,020647,3540.7722589,N,13933.6838361,E,1,8,0.952,70.478,M,38.000,M,,*6C
$GPGGA,020717,3540.7725754,N,13933.6842537,E,1,9,0.915,70.760,M,38.000,M,,*6D
$GPGGA,020747,3540.7725130,N,13933.6841120,E,1,9,0.915,68.277,M,38.000,M,,*67
$GPGGA,020817,3540.7722228,N,13933.6843123,E,1,9,0.915,69.742,M,38.000,M,,*63
$GPGGA,020847,3540.7717882,N,13933.6838258,E,1,9,0.914,70.077,M,38.000,M,,*61
$GPGGA,020917,3540.7722059,N,13933.6836617,E,1,9,0.914,69.716,M,38.000,M,,*64
$GPGGA,020947,3540.7717830,N,13933.6835158,E,1,9,0.914,70.059,M,38.000,M,,*6B
$GPGGA,021017,3540.7725308,N,13933.6840947,E,1,9,0.914,69.345,M,38.000,M,,*65
$GPGGA,021047,3540.7717774,N,13933.6838099,E,1,9,0.914,70.526,M,38.000,M,,*60
$GPGGA,021117,3540.7725752,N,13933.6843742,E,1,9,0.914,68.293,M,38.000,M,,*6C
$GPGGA,021147,3540.7724242,N,13933.6843567,E,1,9,0.914,68.296,M,38.000,M,,*6C
$GPGGA,021217,3540.7724047,N,13933.6841712,E,1,9,0.914,69.371,M,38.000,M,,*66
$GPGGA,021247,3540.7722029,N,13933.6843829,E,1,9,0.913,67.586,M,38.000,M,,*6F
$GPGGA,021317,3540.7727078,N,13933.6844996,E,1,9,0.913,67.847,M,38.000,M,,*68
$GPGGA,021347,3540.7719780,N,13933.6843781,E,1,9,0.913,69.336,M,38.000,M,,*6C
$GPGGA,021417,3540.7726940,N,13933.6850539,E,1,9,0.913,68.035,M,38.000,M,,*62
$GPGGA,021447,3540.7727791,N,13933.6848723,E,1,9,0.913,67.509,M,38.000,M,,*61
$GPGGA,021517,3540.7732962,N,13933.6843843,E,1,9,0.913,67.914,M,38.000,M,,*61
$GPGGA,021547,3540.7730386,N,13933.6849593,E,1,9,0.913,65.605,M,38.000,M,,*61
$GPGGA,021617,3540.7728782,N,13933.6843901,E,1,9,0.912,66.319,M,38.000,M,,*69
$GPGGA,021647,3540.7732848,N,13933.6845840,E,1,9,0.912,62.873,M,38.000,M,,*6F
$GPGGA,021717,3540.7731596,N,13933.6851535,E,1,9,0.912,66.445,M,38.000,M,,*61
$GPGGA,021747,3540.7734770,N,13933.6854041,E,1,9,0.912,66.682,M,38.000,M,,*61
$GPGGA,021817,3540.7741433,N,13933.6855106,E,1,9,0.912,63.038,M,38.000,M,,*6C
$GPGGA,021847,3540.7739435,N,13933.6856423,E,1,9,0.912,63.761,M,38.000,M,,*6A
$GPGGA,021917,3540.7739891,N,13933.6851676,E,1,9,0.911,60.863,M,38.000,M,,*64
$GPGGA,021947,3540.7747561,N,13933.6864491,E,1,9,0.911,60.810,M,38.000,M,,*63
$GPGGA,022017,3540.7749320,N,13933.6865845,E,1,9,0.911,59.725,M,38.000,M,,*66
$GPGGA,022047,3540.7724425,N,13933.6842278,E,1,8,0.965,69.948,M,38.000,M,,*6F
$GPGGA,022117,3540.7751267,N,13933.6864818,E,1,9,0.911,55.523,M,38.000,M,,*6D
$GPGGA,022147,3540.7723776,N,13933.6840585,E,1,8,0.964,71.492,M,38.000,M,,*69
$GPGGA,022217,3540.7723612,N,13933.6842867,E,1,8,0.963,73.469,M,38.000,M,,*6E
$GPGGA,022247,3540.7723259,N,13933.6839201,E,1,8,0.963,71.731,M,38.000,M,,*6A
$GPGGA,022317,3540.7726908,N,13933.6844082,E,1,7,1.171,70.386,M,38.000,M,,*6B
$GPGGA,022347,3540.7727353,N,13933.6845745,E,1,8,0.962,72.525,M,38.000,M,,*6F
$GPGGA,022417,3540.7730699,N,13933.6846126,E,1,8,0.962,73.972,M,38.000,M,,*67
$GPGGA,022447,3540.7723454,N,13933.6844068,E,1,8,0.961,73.269,M,38.000,M,,*68
$GPGGA,022517,3540.7727437,N,13933.6845178,E,1,8,0.961,74.563,M,38.000,M,,*66
$GPGGA,022547,3540.7725524,N,13933.6843415,E,1,8,0.960,71.625,M,38.000,M,,*6F
$GPGGA,022617,3540.7727704,N,13933.6844449,E,1,8,0.960,74.126,M,38.000,M,,*64
$GPGGA,022647,3540.7727258,N,13933.6844650,E,1,8,0.959,73.649,M,38.000,M,,*64
$GPGGA,022717,3540.7729672,N,13933.6846512,E,1,8,0.959,74.904,M,38.000,M,,*64
$GPGGA,022747,3540.7732201,N,13933.6843359,E,1,8,0.958,77.830,M,38.000,M,,*63
$GPGGA,022817,3540.7729309,N,13933.6845785,E,1,8,0.958,74.456,M,38.000,M,,*66
$GPGGA,022847,3540.7727151,N,13933.6830938,E,1,9,0.895,72.739,M,38.000,M,,*65
$GPGGA,022917,3540.7725298,N,13933.6836161,E,1,9,0.895,72.353,M,38.000,M,,*6F
$GPGGA,022947,3540.7718861,N,13933.6832737,E,1,9,0.894,74.437,M,38.000,M,,*6B
$GPGGA,023017,3540.7718965,N,13933.6834422,E,1,9,0.894,76.178,M,38.000,M,,*6E
$GPGGA,023047,3540.7717468,N,13933.6834959,E,1,9,0.894,76.657,M,38.000,M,,*6F
$GPGGA,023117,3540.7723018,N,13933.6834423,E,1,9,0.894,74.454,M,38.000,M,,*6C
$GPGGA,023147,3540.7724206,N,13933.6839725,E,1,9,0.894,77.760,M,38.000,M,,*6C
$GPGGA,023217,3540.7721458,N,13933.6842896,E,1,9,0.894,77.182,M,38.000,M,,*63
$GPGGA,023247,3540.7724813,N,13933.6839910,E,1,9,0.894,78.500,M,38.000,M,,*62
$GPGGA,023317,3540.7723916,N,13933.6841324,E,1,9,0.893,77.906,M,38.000,M,,*65
$GPGGA,023347,3540.7721427,N,13933.6841134,E,1,9,0.893,79.389,M,38.000,M,,*6D
$GPGGA,023417,3540.7721234,N,13933.6842078,E,1,9,0.893,79.037,M,38.000,M,,*67
$GPGGA,023447,3540.7724775,N,13933.6844483,E,1,9,0.893,79.019,M,38.000,M,,*6D
$GPGGA,023517,3540.7724537,N,13933.6840802,E,1,9,0.893,79.749,M,38.000,M,,*6E
$GPGGA,023547,3540.7720534,N,13933.6842847,E,1,9,0.893,79.110,M,38.000,M,,*65
$GPGGA,023617,3540.7722720,N,13933.6842105,E,1,9,0.893,79.653,M,38.000,M,,*69
$GPGGA,023647,3540.7720742,N,13933.6838728,E,1,9,0.893,78.030,M,38.000,M,,*6C
$GPGGA,023717,3540.7720063,N,13933.6836079,E,1,9,0.892,78.808,M,38.000,M,,*63
$GPGGA,023747,3540.7722327,N,13933.6842304,E,1,9,0.892,79.146,M,38.000,M,,*6F
$GPGGA,023817,3540.7719087,N,13933.6841465,E,1,9,0.892,78.817,M,38.000,M,,*6B
$GPGGA,023847,3540.7721726,N,13933.6839234,E,1,9,0.892,75.998,M,38.000,M,,*6F
$GPGGA,023917,3540.7715184,N,13933.6841495,E,1,9,0.892,75.948,M,38.000,M,,*6D
$GPGGA,023947,3540.7719350,N,13933.6843111,E,1,9,0.892,77.017,M,38.000,M,,*65
$GPGGA,024017,3540.7713097,N,13933.6838913,E,1,9,0.892,77.042,M,38.000,M,,*6A
$GPGGA,024047,3540.7708696,N,13933.6835952,E,1,9,0.892,71.932,M,38.000,M,,*62
$GPGGA,024117,3540.7705938,N,13933.6837836,E,1,9,0.892,70.757,M,38.000,M,,*6D
$GPGGA,024147,3540.7699232,N,13933.6839691,E,1,9,0.892,67.639,M,38.000,M,,*6F
$GPGGA,024217,3540.7695174,N,13933.6841841,E,1,9,0.892,63.517,M,38.000,M,,*63
$GPGGA,024247,3540.7687471,N,13933.6846745,E,1,9,0.892,61.092,M,38.000,M,,*63
$GPGGA,024317,3540.7712166,N,13933.6844116,E,1,8,0.917,72.747,M,38.000,M,,*6B
$GPGGA,024347,3540.7700604,N,13933.6828656,E,1,7,1.022,68.847,M,38.000,M,,*62
$GPGGA,024417,3540.7698948,N,13933.6826411,E,1,7,1.022,69.613,M,38.000,M,,*66
$GPGGA,024447,3540.7708959,N,13933.6831225,E,1,8,0.917,71.347,M,38.000,M,,*60
$GPGGA,024517,3540.7711428,N,13933.6831818,E,1,8,0.917,71.797,M,38.000,M,,*6A
$GPGGA,024547,3540.7706348,N,13933.6835883,E,1,8,0.917,72.745,M,38.000,M,,*62
$GPGGA,024617,3540.7708917,N,13933.6837184,E,1,8,0.917,70.788,M,38.000,M,,*65
$GPGGA,024647,3540.7703887,N,13933.6833794,E,1,8,0.916,71.734,M,38.000,M,,*67
$GPGGA,024717,3540.7708046,N,13933.6842102,E,1,8,0.916,72.836,M,38.000,M,,*6C
$GPGGA,024747,3540.7709807,N,13933.6838312,E,1,9,0.800,69.529,M,38.000,M,,*65
$GPGGA,024817,3540.7713456,N,13933.6841246,E,1,9,0.800,71.475,M,38.000,M,,*63
$GPGGA,024847,3540.7709973,N,13933.6836785,E,1,9,0.800,70.324,M,38.000,M,,*6F
$GPGGA,024917,3540.7709887,N,13933.6836210,E,1,9,0.800,69.959,M,38.000,M,,*60
$GPGGA,024947,3540.7710307,N,13933.6836012,E,1,9,0.799,69.664,M,38.000,M,,*60
$GPGGA,025017,3540.7710197,N,13933.6836636,E,1,9,0.799,70.417,M,38.000,M,,*68
$GPGGA,025047,3540.7706366,N,13933.6838107,E,1,9,0.799,70.373,M,38.000,M,,*68
$GPGGA,025117,3540.7709687,N,13933.6832954,E,1,9,0.799,70.314,M,38.000,M,,*6C
$GPGGA,025147,3540.7707325,N,13933.6832952,E,1,9,0.799,69.738,M,38.000,M,,*6E
$GPGGA,025217,3540.7707319,N,13933.6835670,E,1,9,0.799,70.349,M,38.000,M,,*65
$GPGGA,025247,3540.7708514,N,13933.6835516,E,1,9,0.799,67.864,M,38.000,M,,*65
$GPGGA,025317,3540.7707790,N,13933.6836768,E,1,9,0.799,69.695,M,38.000,M,,*66
$GPGGA,025347,3540.7707523,N,13933.6834702,E,1,9,0.799,69.830,M,38.000,M,,*66
$GPGGA,025417,3540.7704155,N,13933.6831507,E,1,9,0.799,71.033,M,38.000,M,,*62
$GPGGA,025447,3540.7705115,N,13933.6838176,E,1,9,0.799,68.599,M,38.000,M,,*64
$GPGGA,025517,3540.7706318,N,13933.6836427,E,1,9,0.799,69.110,M,38.000,M,,*67
$GPGGA,025547,3540.7705051,N,13933.6834872,E,1,9,0.799,69.898,M,38.000,M,,*68
$GPGGA,025617,3540.7709200,N,13933.6832573,E,1,9,0.799,68.022,M,38.000,M,,*66
$GPGGA,025647,3540.7707471,N,13933.6838302,E,1,9,0.799,70.205,M,38.000,M,,*69
$GPGGA,025717,3540.7707230,N,13933.6837188,E,1,9,0.799,68.875,M,38.000,M,,*65
$GPGGA,025747,3540.7707510,N,13933.6842490,E,1,9,0.799,69.383,M,38.000,M,,*68
$GPGGA,025817,3540.7705126,N,13933.6833424,E,1,9,0.799,70.121,M,38.000,M,,*6A
$GPGGA,025847,3540.7709514,N,13933.6834974,E,1,9,0.799,69.468,M,38.000,M,,*69
$GPGGA,025917,3540.7709373,N,13933.6836571,E,1,9,0.799,68.741,M,38.000,M,,*68
$GPGGA,025947,3540.7705855,N,13933.6832510,E,1,9,0.799,69.093,M,38.000,M,,*64
$GPGGA,030017,3540.7705490,N,13933.6832592,E,1,9,0.799,71.320,M,38.000,M,,*61
$GPGGA,030047,3540.7708951,N,13933.6832922,E,1,9,0.799,70.308,M,38.000,M,,*65
$GPGGA,030117,3540.7708241,N,13933.6835500,E,1,9,0.799,69.549,M,38.000,M,,*6B
$GPGGA,030147,3540.7708422,N,13933.6833229,E,1,9,0.799,69.093,M,38.000,M,,*65
$GPGGA,030217,3540.7713073,N,13933.6829916,E,1,9,0.799,67.605,M,38.000,M,,*62
$GPGGA,030247,3540.7709412,N,13933.6832258,E,1,9,0.799,68.608,M,38.000,M,,*66
$GPGGA,030317,3540.7710622,N,13933.6833343,E,1,9,0.799,68.798,M,38.000,M,,*69
$GPGGA,030347,3540.7708437,N,13933.6830537,E,1,9,0.799,69.269,M,38.000,M,,*6F
$GPGGA,030417,3540.7706729,N,13933.6830718,E,1,9,0.799,69.605,M,38.000,M,,*6E
$GPGGA,030447,3540.7708757,N,13933.6830628,E,1,9,0.799,69.608,M,38.000,M,,*63
$GPGGA,030517,3540.7709735,N,13933.6835845,E,1,9,0.799,69.736,M,38.000,M,,*6E
$GPGGA,030547,3540.7711777,N,13933.6839218,E,1,9,0.799,68.922,M,38.000,M,,*60
$GPGGA,030617,3540.7709752,N,13933.6834449,E,1,9,0.799,69.779,M,38.000,M,,*66
$GPGGA,030647,3540.7708936,N,13933.6834292,E,1,9,0.799,68.672,M,38.000,M,,*65
$GPGGA,030717,3540.7710746,N,13933.6835057,E,1,9,0.799,67.877,M,38.000,M,,*6F
$GPGGA,030747,3540.7710927,N,13933.6834182,E,1,9,0.799,68.014,M,38.000,M,,*69
$GPGGA,030817,3540.7706020,N,13933.6830044,E,1,9,0.799,69.389,M,38.000,M,,*63
$GPGGA,030847,3540.7713779,N,13933.6840056,E,1,9,0.800,66.956,M,38.000,M,,*65
$GPGGA,030917,3540.7704830,N,13933.6832111,E,1,9,0.800,70.086,M,38.000,M,,*61
$GPGGA,030947,3540.7714888,N,13933.6833980,E,1,9,0.800,69.059,M,38.000,M,,*6D
$GPGGA,031017,3540.7705673,N,13933.6836664,E,1,9,0.800,68.737,M,38.000,M,,*64
$GPGGA,031047,3540.7710526,N,13933.6833300,E,1,9,0.800,68.125,M,38.000,M,,*61
$GPGGA,031117,3540.7704335,N,13933.6833735,E,1,9,0.800,69.463,M,38.000,M,,*60
$GPGGA,031147,3540.7710964,N,13933.6826860,E,1,9,0.800,70.248,M,38.000,M,,*62
$GPGGA,031217,3540.7710907,N,13933.6837849,E,1,9,0.800,69.146,M,38.000,M,,*6F
$GPGGA,031247,3540.7706416,N,13933.6832724,E,1,9,0.801,69.248,M,38.000,M,,*6D
$GPGGA,031317,3540.7711426,N,13933.6837975,E,1,9,0.801,67.321,M,38.000,M,,*63
$GPGGA,031347,3540.7710484,N,13933.6836683,E,1,9,0.801,68.704,M,38.000,M,,*64
$GPGGA,031417,3540.7713378,N,13933.6830708,E,1,9,0.801,69.644,M,38.000,M,,*61
$GPGGA,031447,3540.7706853,N,13933.6832376,E,1,9,0.801,69.710,M,38.000,M,,*6D
$GPGGA,031517,3540.7707596,N,13933.6835091,E,1,9,0.801,69.809,M,38.000,M,,*66
$GPGGA,031547,3540.7712943,N,13933.6834799,E,1,9,0.801,70.106,M,38.000,M,,*63
$GPGGA,031617,3540.7705310,N,13933.6833951,E,1,9,0.802,68.894,M,38.000,M,,*6A
$GPGGA,031647,3540.7709999,N,13933.6835653,E,1,9,0.802,69.307,M,38.000,M,,*63
$GPGGA,031717,3540.7709717,N,13933.6834012,E,1,9,0.802,69.334,M,38.000,M,,*6D
$GPGGA,031747,3540.7707316,N,13933.6831915,E,1,9,0.802,68.620,M,38.000,M,,*69
$GPGGA,031817,3540.7710422,N,13933.6833098,E,1,9,0.802,68.839,M,38.000,M,,*6D
$GPGGA,031847,3540.7713654,N,13933.6832518,E,1,9,0.803,70.285,M,38.000,M,,*61
$GPGGA,031917,3540.7709989,N,13933.6831648,E,1,9,0.803,71.055,M,38.000,M,,*6A
$GPGGA,031947,3540.7711428,N,13933.6834046,E,1,9,0.803,70.843,M,38.000,M,,*63
$GPGGA,032017,3540.7711927,N,13933.6835602,E,1,9,0.803,68.646,M,38.000,M,,*6B
$GPGGA,032047,3540.7706317,N,13933.6829292,E,1,9,0.803,71.362,M,38.000,M,,*6A
$GPGGA,032117,3540.7713556,N,13933.6828531,E,1,9,0.804,68.482,M,38.000,M,,*60
$GPGGA,032147,3540.7709980,N,13933.6833347,E,1,9,0.804,69.619,M,38.000,M,,*65
$GPGGA,032217,3540.7713229,N,13933.6833925,E,1,9,0.804,69.331,M,38.000,M,,*61
$GPGGA,032247,3540.7710585,N,13933.6836142,E,1,9,0.804,66.642,M,38.000,M,,*64
$GPGGA,032317,3540.7710583,N,13933.6833126,E,1,9,0.805,67.178,M,38.000,M,,*6F
$GPGGA,032347,3540.7710797,N,13933.6835970,E,1,9,0.805,69.679,M,38.000,M,,*68
$GPGGA,032417,3540.7713311,N,13933.6831732,E,1,9,0.805,69.372,M,38.000,M,,*61
$GPGGA,032447,3540.7715559,N,13933.6839202,E,1,9,0.805,67.502,M,38.000,M,,*69
$GPGGA,032517,3540.7708554,N,13933.6832331,E,1,9,0.806,70.278,M,38.000,M,,*69
$GPGGA,032547,3540.7714082,N,13933.6831760,E,1,9,0.806,70.221,M,38.000,M,,*60
$GPGGA,032617,3540.7712608,N,13933.6831065,E,1,9,0.806,70.220,M,38.000,M,,*67
$GPGGA,032647,3540.7709967,N,13933.6837000,E,1,9,0.806,66.331,M,38.000,M,,*6D
$GPGGA,032717,3540.7719476,N,13933.6835762,E,1,9,0.807,68.210,M,38.000,M,,*69
$GPGGA,032747,3540.7718213,N,13933.6832757,E,1,9,0.807,67.195,M,38.000,M,,*68
$GPGGA,032817,3540.7719717,N,13933.6838056,E,1,9,0.807,65.714,M,38.000,M,,*63
$GPGGA,032847,3540.7717977,N,13933.6837974,E,1,9,0.808,66.796,M,38.000,M,,*60
$GPGGA,032917,3540.7719304,N,13933.6831708,E,1,9,0.808,65.673,M,38.000,M,,*6E
$GPGGA,032947,3540.7718807,N,13933.6839140,E,1,9,0.808,63.947,M,38.000,M,,*6E
$GPGGA,033017,3540.7716536,N,13933.6841717,E,1,9,0.809,63.130,M,38.000,M,,*60
$GPGGA,033047,3540.7727250,N,13933.6841852,E,1,9,0.809,64.831,M,38.000,M,,*61
$GPGGA,033117,3540.7724311,N,13933.6843196,E,1,9,0.809,63.103,M,38.000,M,,*6E
$GPGGA,033147,3540.7730253,N,13933.6845414,E,1,9,0.810,63.661,M,38.000,M,,*6B
$GPGGA,033217,3540.7730026,N,13933.6846806,E,1,9,0.810,60.712,M,38.000,M,,*67
$GPGGA,033247,3540.7738606,N,13933.6855413,E,1,9,0.810,56.373,M,38.000,M,,*62
$GPGGA,033317,3540.7738162,N,13933.6856269,E,1,9,0.811,55.634,M,38.000,M,,*6F
$GPGGA,033347,3540.7712991,N,13933.6829797,E,1,8,0.933,74.981,M,38.000,M,,*68
$GPGGA,033417,3540.7713016,N,13933.6825586,E,1,8,0.933,74.206,M,38.000,M,,*67
$GPGGA,033447,3540.7706472,N,13933.6832810,E,1,8,0.933,77.067,M,38.000,M,,*62
$GPGGA,033517,3540.7714475,N,13933.6827439,E,1,8,0.933,74.237,M,38.000,M,,*65
$GPGGA,033547,3540.7716516,N,13933.6826105,E,1,8,0.933,76.173,M,38.000,M,,*6C
$GPGGA,033617,3540.7717563,N,13933.6825164,E,1,8,0.933,75.789,M,38.000,M,,*6D
$GPGGA,033647,3540.7715922,N,13933.6829726,E,1,8,0.933,74.676,M,38.000,M,,*6F
$GPGGA,033717,3540.7714946,N,13933.6829384,E,1,8,0.933,74.309,M,38.000,M,,*69
$GPGGA,033747,3540.7719250,N,13933.6827434,E,1,8,0.933,76.257,M,38.000,M,,*67
$GPGGA,033817,3540.7716006,N,13933.6826922,E,1,8,0.933,77.793,M,38.000,M,,*64
$GPGGA,033847,3540.7716387,N,13933.6827963,E,1,8,0.933,76.957,M,38.000,M,,*68
$GPGGA,033917,3540.7717188,N,13933.6825327,E,1,8,0.933,76.669,M,38.000,M,,*6A
$GPGGA,033947,3540.7718729,N,13933.6832878,E,1,9,0.897,72.606,M,38.000,M,,*69
$GPGGA,034017,3540.7720744,N,13933.6830579,E,1,9,0.897,73.197,M,38.000,M,,*62
$GPGGA,034047,3540.7722832,N,13933.6831595,E,1,9,0.898,74.059,M,38.000,M,,*63
$GPGGA,034117,3540.7723899,N,13933.6831550,E,1,9,0.898,72.385,M,38.000,M,,*6A
$GPGGA,034147,3540.7723952,N,13933.6828836,E,1,9,0.899,74.375,M,38.000,M,,*64
$GPGGA,034217,3540.7727700,N,13933.6828625,E,1,9,0.899,74.793,M,38.000,M,,*6F
$GPGGA,034247,3540.7724464,N,13933.6829916,E,1,9,0.900,74.362,M,38.000,M,,*6D
$GPGGA,034317,3540.7721799,N,13933.6828012,E,1,9,0.901,73.296,M,38.000,M,,*6D
$GPGGA,034347,3540.7723361,N,13933.6828899,E,1,9,0.901,72.951,M,38.000,M,,*63
$GPGGA,034417,3540.7723463,N,13933.6831271,E,1,9,0.902,73.656,M,38.000,M,,*6A
$GPGGA,034447,3540.7724943,N,13933.6827323,E,1,9,0.902,72.413,M,38.000,M,,*64
$GPGGA,034517,3540.7717727,N,13933.6833958,E,1,9,0.903,72.798,M,38.000,M,,*6E
$GPGGA,034547,3540.7715114,N,13933.6834028,E,1,9,0.903,71.129,M,38.000,M,,*69
$GPGGA,034617,3540.7715633,N,13933.6833842,E,1,9,0.904,69.743,M,38.000,M,,*6A
$GPGGA,034647,3540.7708625,N,13933.6833063,E,1,9,0.904,69.464,M,38.000,M,,*69
$GPGGA,034717,3540.7707035,N,13933.6833063,E,1,9,0.905,67.514,M,38.000,M,,*6C
$GPGGA,034747,3540.7702295,N,13933.6836930,E,1,9,0.905,64.689,M,38.000,M,,*6A
$GPGGA,034817,3540.7700377,N,13933.6836688,E,1,9,0.906,64.742,M,38.000,M,,*66
$GPGGA,034847,3540.7689226,N,13933.6840312,E,1,9,0.906,58.898,M,38.000,M,,*66
$GPGGA,034917,3540.7685464,N,13933.6843731,E,1,9,0.907,56.983,M,38.000,M,,*6C
$GPGGA,034947,3540.7678650,N,13933.6842897,E,1,9,0.907,53.045,M,38.000,M,,*6A
$GPGGA,035017,3540.7666179,N,13933.6845063,E,1,9,0.908,45.058,M,38.000,M,,*64
$GPGGA,035047,3540.7641614,N,13933.6857690,E,1,9,0.908,35.073,M,38.000,M,,*6F
$GPGGA,035117,3540.7621336,N,13933.6862419,E,1,9,0.909,23.426,M,38.000,M,,*6F
$GPGGA,035147,3540.7706301,N,13933.6837959,E,1,8,1.039,63.739,M,38.000,M,,*60
$GPGGA,035217,3540.7706127,N,13933.6834684,E,1,8,1.039,63.729,M,38.000,M,,*6D
$GPGGA,035247,3540.7701630,N,13933.6837099,E,1,8,1.039,65.089,M,38.000,M,,*6C
$GPGGA,035317,3540.7702897,N,13933.6835664,E,1,8,1.039,64.811,M,38.000,M,,*66
$GPGGA,035347,3540.7698859,N,13933.6838940,E,1,8,1.039,64.766,M,38.000,M,,*68
$GPGGA,035417,3540.7702208,N,13933.6836426,E,1,8,1.038,64.485,M,38.000,M,,*6A
$GPGGA,035447,3540.7704092,N,13933.6838896,E,1,8,1.038,63.940,M,38.000,M,,*62
$GPGGA,035517,3540.7697824,N,13933.6837751,E,1,8,1.038,65.762,M,38.000,M,,*6B
$GPGGA,035547,3540.7734010,N,13933.6825951,E,1,9,0.984,44.817,M,38.000,M,,*64
$GPGGA,035617,3540.7726644,N,13933.6831825,E,1,9,0.982,50.218,M,38.000,M,,*67
$GPGGA,035647,3540.7719325,N,13933.6827682,E,1,9,0.980,53.579,M,38.000,M,,*69
$GPGGA,035717,3540.7712528,N,13933.6830867,E,1,9,0.979,56.312,M,38.000,M,,*66
$GPGGA,035747,3540.7711827,N,13933.6828153,E,1,9,0.977,58.669,M,38.000,M,,*6C
$GPGGA,035817,3540.7709711,N,13933.6833376,E,1,9,0.975,59.494,M,38.000,M,,*69
$GPGGA,035847,3540.7703389,N,13933.6829417,E,1,9,0.974,61.444,M,38.000,M,,*6F
$GPGGA,035917,3540.7705372,N,13933.6832957,E,1,9,0.972,61.838,M,38.000,M,,*6B
$GPGGA,035947,3540.7704150,N,13933.6832140,E,1,9,0.970,63.103,M,38.000,M,,*62
$GPGGA,040017,3540.7703688,N,13933.6833312,E,1,9,0.968,64.158,M,38.000,M,,*6D
$GPGGA,040047,3540.7704357,N,13933.6834498,E,1,9,0.967,63.248,M,38.000,M,,*60
$GPGGA,040117,3540.7698678,N,13933.6833239,E,1,9,0.965,64.868,M,38.000,M,,*6F
$GPGGA,040147,3540.7706902,N,13933.6832751,E,1,9,0.963,63.115,M,38.000,M,,*66
$GPGGA,040217,3540.7699862,N,13933.6838423,E,1,9,0.961,63.752,M,38.000,M,,*6B
$GPGGA,040247,3540.7703316,N,13933.6836951,E,1,9,0.959,64.573,M,38.000,M,,*6F
$GPGGA,040317,3540.7698427,N,13933.6833332,E,1,9,0.958,65.363,M,38.000,M,,*60
$GPGGA,040347,3540.7696064,N,13933.6833267,E,1,9,0.956,64.475,M,38.000,M,,*66
$GPGGA,040417,3540.7698941,N,13933.6835268,E,1,9,0.954,64.810,M,38.000,M,,*60
$GPGGA,040447,3540.7699540,N,13933.6837534,E,1,9,0.952,65.142,M,38.000,M,,*6C
$GPGGA,040517,3540.7703176,N,13933.6833312,E,1,9,0.950,62.405,M,38.000,M,,*6E
$GPGGA,040547,3540.7698054,N,13933.6832280,E,1,9,0.948,66.475,M,38.000,M,,*68
$GPGGA,040617,3540.7702580,N,13933.6834102,E,1,9,0.946,65.737,M,38.000,M,,*67
$GPGGA,040647,3540.7699850,N,13933.6833676,E,1,9,0.944,67.077,M,38.000,M,,*61
$GPGGA,040717,3540.7698487,N,13933.6837873,E,1,9,0.943,65.943,M,38.000,M,,*66
$GPGGA,040747,3540.7697332,N,13933.6832183,E,1,9,0.941,66.755,M,38.000,M,,*6E
$GPGGA,040817,3540.7696406,N,13933.6833229,E,1,9,0.939,65.781,M,38.000,M,,*62
$GPGGA,040847,3540.7696748,N,13933.6837014,E,1,9,0.937,65.437,M,38.000,M,,*66
$GPGGA,040917,3540.7697603,N,13933.6838459,E,1,9,0.935,65.490,M,38.000,M,,*60
$GPGGA,040947,3540.7695001,N,13933.6831700,E,1,9,0.933,66.174,M,38.000,M,,*6F
$GPGGA,041017,3540.7692915,N,13933.6834168,E,1,9,0.932,66.655,M,38.000,M,,*61
$GPGGA,041047,3540.7697824,N,13933.6833995,E,1,9,0.930,65.197,M,38.000,M,,*67
$GPGGA,041117,3540.7696641,N,13933.6836184,E,1,9,0.928,65.109,M,38.000,M,,*6C
$GPGGA,041147,3540.7694670,N,13933.6832394,E,1,9,0.926,65.780,M,38.000,M,,*67
$GPGGA,041217,3540.7698509,N,13933.6836123,E,1,9,0.924,63.300,M,38.000,M,,*62
$GPGGA,041247,3540.7691179,N,13933.6834785,E,1,9,0.923,66.082,M,38.000,M,,*6E
$GPGGA,041317,3540.7694123,N,13933.6835292,E,1,9,0.921,65.084,M,38.000,M,,*65
$GPGGA,041347,3540.7698366,N,13933.6832776,E,1,9,0.919,64.873,M,38.000,M,,*6D
$GPGGA,041417,3540.7696222,N,13933.6835607,E,1,9,0.917,64.225,M,38.000,M,,*67
$GPGGA,041447,3540.7692719,N,13933.6837157,E,1,9,0.916,64.371,M,38.000,M,,*6A
$GPGGA,041517,3540.7691921,N,13933.6838797,E,1,9,0.914,64.847,M,38.000,M,,*61
$GPGGA,041547,3540.7691467,N,13933.6836501,E,1,9,0.912,64.325,M,38.000,M,,*61
$GPGGA,041617,3540.7693967,N,13933.6834934,E,1,9,0.911,64.349,M,38.000,M,,*69
$GPGGA,041647,3540.7693145,N,13933.6835288,E,1,9,0.909,63.949,M,38.000,M,,*6D
$GPGGA,041717,3540.7698066,N,13933.6835792,E,1,9,0.907,63.741,M,38.000,M,,*64
$GPGGA,041747,3540.7695226,N,13933.6835411,E,1,9,0.906,64.835,M,38.000,M,,*68
$GPGGA,041817,3540.7694029,N,13933.6837035,E,1,9,0.904,65.539,M,38.000,M,,*6C
$GPGGA,041847,3540.7692975,N,13933.6834164,E,1,9,0.903,65.397,M,38.000,M,,*6C
$GPGGA,041917,3540.7689394,N,13933.6833292,E,1,9,0.901,65.485,M,38.000,M,,*6C
$GPGGA,041947,3540.7694319,N,13933.6833861,E,1,9,0.900,65.148,M,38.000,M,,*63
$GPGGA,042017,3540.7696715,N,13933.6834738,E,1,9,0.898,64.414,M,38.000,M,,*6F
$GPGGA,042047,3540.7696577,N,13933.6832766,E,1,9,0.897,65.397,M,38.000,M,,*63
$GPGGA,042117,3540.7696658,N,13933.6834782,E,1,9,0.895,64.097,M,38.000,M,,*65
$GPGGA,042147,3540.7694427,N,13933.6838134,E,1,9,0.894,64.345,M,38.000,M,,*62
$GPGGA,042217,3540.7695949,N,13933.6837541,E,1,9,0.893,63.826,M,38.000,M,,*67
$GPGGA,042247,3540.7697373,N,13933.6830497,E,1,9,0.891,64.741,M,38.000,M,,*65
$GPGGA,042317,3540.7697074,N,13933.6834199,E,1,9,0.890,63.950,M,38.000,M,,*62
$GPGGA,042347,3540.7691791,N,13933.6835857,E,1,9,0.889,64.685,M,38.000,M,,*6F
$GPGGA,042417,3540.7690035,N,13933.6835517,E,1,9,0.887,65.756,M,38.000,M,,*6C
$GPGGA,042447,3540.7691218,N,13933.6839909,E,1,9,0.886,65.150,M,38.000,M,,*6B
$GPGGA,042517,3540.7686110,N,13933.6839766,E,1,9,0.885,66.394,M,38.000,M,,*6F
$GPGGA,042547,3540.7692803,N,13933.6835662,E,1,9,0.884,65.604,M,38.000,M,,*63
$GPGGA,042617,3540.7692758,N,13933.6836176,E,1,9,0.882,66.213,M,38.000,M,,*62
$GPGGA,042647,3540.7692510,N,13933.6837288,E,1,9,0.881,65.637,M,38.000,M,,*68
$GPGGA,042717,3540.7691719,N,13933.6837092,E,1,9,0.880,64.335,M,38.000,M,,*6A
$GPGGA,042747,3540.7693944,N,13933.6838807,E,1,9,0.879,65.226,M,38.000,M,,*64
$GPGGA,042817,3540.7693308,N,13933.6834124,E,1,9,0.878,64.796,M,38.000,M,,*66
$GPGGA,042847,3540.7696264,N,13933.6839306,E,1,9,0.877,64.767,M,38.000,M,,*63
$GPGGA,042917,3540.7696520,N,13933.6840160,E,1,9,0.876,63.936,M,38.000,M,,*60
$GPGGA,042947,3540.7695784,N,13933.6834450,E,1,9,0.875,64.498,M,38.000,M,,*62
$GPGGA,043017,3540.7694620,N,13933.6837543,E,1,9,0.874,65.571,M,38.000,M,,*67
$GPGGA,043047,3540.7694985,N,13933.6835983,E,1,9,0.873,65.272,M,38.000,M,,*63
$GPGGA,043117,3540.7688906,N,13933.6838973,E,1,9,0.872,65.174,M,38.000,M,,*67
$GPGGA,043147,3540.7694857,N,13933.6836802,E,1,9,0.871,64.749,M,38.000,M,,*69
$GPGGA,043217,3540.7697078,N,13933.6838350,E,1,9,0.870,64.864,M,38.000,M,,*6A
$GPGGA,043247,3540.7698713,N,13933.6841179,E,1,9,0.869,61.882,M,38.000,M,,*68
$GPGGA,043317,3540.7700153,N,13933.6843704,E,1,9,0.868,63.260,M,38.000,M,,*65
$GPGGA,043347,3540.7698692,N,13933.6836558,E,1,9,0.868,63.614,M,38.000,M,,*64
$GPGGA,043417,3540.7692184,N,13933.6836626,E,1,9,0.867,65.469,M,38.000,M,,*67
$GPGGA,043447,3540.7692301,N,13933.6839389,E,1,9,0.866,65.107,M,38.000,M,,*6E
$GPGGA,043517,3540.7699230,N,13933.6831895,E,1,9,0.865,65.078,M,38.000,M,,*66
$GPGGA,043547,3540.7695544,N,13933.6836096,E,1,9,0.864,64.317,M,38.000,M,,*6D
$GPGGA,043617,3540.7700199,N,13933.6831968,E,1,9,0.864,64.202,M,38.000,M,,*68
$GPGGA,043647,3540.7693355,N,13933.6837609,E,1,9,0.863,65.197,M,38.000,M,,*63
$GPGGA,043717,3540.7691254,N,13933.6838340,E,1,9,0.862,65.438,M,38.000,M,,*63
$GPGGA,043747,3540.7695399,N,13933.6837651,E,1,9,0.862,63.775,M,38.000,M,,*64
$GPGGA,043817,3540.7701685,N,13933.6836157,E,1,9,0.861,62.319,M,38.000,M,,*66
$GPGGA,043847,3540.7695378,N,13933.6834024,E,1,9,0.860,64.942,M,38.000,M,,*6C
$GPGGA,043917,3540.7693147,N,13933.6831602,E,1,9,0.860,65.012,M,38.000,M,,*6A
$GPGGA,043947,3540.7698960,N,13933.6835958,E,1,9,0.859,63.453,M,38.000,M,,*60
$GPGGA,044017,3540.7697058,N,13933.6841610,E,1,9,0.859,64.426,M,38.000,M,,*63
$GPGGA,044047,3540.7694837,N,13933.6834788,E,1,9,0.858,64.525,M,38.000,M,,*65
$GPGGA,044117,3540.7699322,N,13933.6833216,E,1,9,0.858,64.172,M,38.000,M,,*60
$GPGGA,044147,3540.7693872,N,13933.6839064,E,1,9,0.857,64.564,M,38.000,M,,*60
$GPGGA,044217,3540.7693265,N,13933.6835385,E,1,9,0.857,64.841,M,38.000,M,,*60
$GPGGA,044247,3540.7696914,N,13933.6838471,E,1,9,0.856,64.695,M,38.000,M,,*6A
$GPGGA,044317,3540.7694791,N,13933.6837054,E,1,9,0.856,64.260,M,38.000,M,,*6D
$GPGGA,044347,3540.7696661,N,13933.6838096,E,1,9,0.855,63.660,M,38.000,M,,*65
$GPGGA,044417,3540.7693749,N,13933.6844455,E,1,9,0.855,62.752,M,38.000,M,,*68
$GPGGA,044447,3540.7692676,N,13933.6835439,E,1,9,0.854,64.216,M,38.000,M,,*6F
$GPGGA,044517,3540.7696270,N,13933.6834933,E,1,9,0.854,64.477,M,38.000,M,,*6A
$GPGGA,044547,3540.7695359,N,13933.6831936,E,1,9,0.854,65.838,M,38.000,M,,*60
$GPGGA,044617,3540.7696533,N,13933.6835660,E,1,9,0.853,62.867,M,38.000,M,,*6D
$GPGGA,044647,3540.7689499,N,13933.6835942,E,1,9,0.853,65.405,M,38.000,M,,*67
$GPGGA,044717,3540.7696815,N,13933.6836921,E,1,9,0.853,65.049,M,38.000,M,,*6F
$GPGGA,044747,3540.7697920,N,13933.6839315,E,1,9,0.852,65.215,M,38.000,M,,*64
$GPGGA,044817,3540.7689448,N,13933.6838234,E,1,9,0.852,64.087,M,38.000,M,,*69
$GPGGA,044847,3540.7692767,N,13933.6837947,E,1,9,0.852,65.142,M,38.000,M,,*61
$GPGGA,044917,3540.7689170,N,13933.6839298,E,1,9,0.851,65.845,M,38.000,M,,*65
$GPGGA,044947,3540.7699855,N,13933.6831591,E,1,9,0.851,65.151,M,38.000,M,,*65
$GPGGA,045017,3540.7698423,N,13933.6841326,E,1,9,0.851,63.525,M,38.000,M,,*68
$GPGGA,045047,3540.7691350,N,13933.6837137,E,1,9,0.850,64.512,M,38.000,M,,*66
$GPGGA,045117,3540.7690050,N,13933.6833173,E,1,9,0.850,65.254,M,38.000,M,,*60
$GPGGA,045147,3540.7692070,N,13933.6836402,E,1,9,0.850,64.915,M,38.000,M,,*6C
$GPGGA,045217,3540.7692286,N,13933.6842244,E,1,9,0.850,65.747,M,38.000,M,,*6E
$GPGGA,045247,3540.7689651,N,13933.6834959,E,1,9,0.850,66.985,M,38.000,M,,*6A
$GPGGA,045317,3540.7693201,N,13933.6828350,E,1,9,0.849,67.198,M,38.000,M,,*67
$GPGGA,045347,3540.7701037,N,13933.6832889,E,1,9,0.849,67.016,M,38.000,M,,*6C
$GPGGA,045417,3540.7692045,N,13933.6838931,E,1,9,0.849,65.023,M,38.000,M,,*6C
$GPGGA,045447,3540.7703470,N,13933.6830512,E,1,9,0.849,66.060,M,38.000,M,,*63
$GPGGA,045517,3540.7697131,N,13933.6836087,E,1,9,0.849,68.270,M,38.000,M,,*69
$GPGGA,045547,3540.7698562,N,13933.6837259,E,1,9,0.848,65.753,M,38.000,M,,*69
$GPGGA,045617,3540.7700388,N,13933.6835129,E,1,9,0.848,66.411,M,38.000,M,,*6D
$GPGGA,045647,3540.7697897,N,13933.6830680,E,1,9,0.848,66.058,M,38.000,M,,*6A
$GPGGA,045717,3540.7701024,N,13933.6832372,E,1,9,0.848,64.814,M,38.000,M,,*68
$GPGGA,045747,3540.7702516,N,13933.6835823,E,1,9,0.848,66.408,M,38.000,M,,*61
$GPGGA,045817,3540.7694809,N,13933.6836735,E,1,9,0.848,65.486,M,38.000,M,,*68
$GPGGA,045847,3540.7692718,N,13933.6833222,E,1,9,0.848,65.345,M,38.000,M,,*6A
$GPGGA,045917,3540.7703488,N,13933.6834043,E,1,9,0.847,65.376,M,38.000,M,,*60
$GPGGA,045947,3540.7700062,N,13933.6841207,E,1,9,0.847,66.255,M,38.000,M,,*65
$GPGGA,050017,3540.7701244,N,13933.6835026,E,1,9,0.847,65.282,M,38.000,M,,*61
$GPGGA,050047,3540.7694867,N,13933.6835575,E,1,9,0.847,65.582,M,38.000,M,,*66
$GPGGA,050117,3540.7701048,N,13933.6831767,E,1,9,0.847,65.264,M,38.000,M,,*60
$GPGGA,050147,3540.7706699,N,13933.6840051,E,1,9,0.847,65.659,M,38.000,M,,*66
$GPGGA,050217,3540.7694444,N,13933.6834525,E,1,9,0.847,67.427,M,38.000,M,,*64
$GPGGA,050247,3540.7710893,N,13933.6831501,E,1,9,0.847,63.710,M,38.000,M,,*6A
$GPGGA,050317,3540.7694697,N,13933.6840034,E,1,9,0.847,64.908,M,38.000,M,,*6C
$GPGGA,050347,3540.7704105,N,13933.6843367,E,1,9,0.847,64.537,M,38.000,M,,*6B
$GPGGA,050417,3540.7700687,N,13933.6839713,E,1,9,0.847,65.093,M,38.000,M,,*60
$GPGGA,050447,3540.7701886,N,13933.6833335,E,1,9,0.847,65.725,M,38.000,M,,*6B
$GPGGA,050517,3540.7697947,N,13933.6835000,E,1,9,0.846,65.770,M,38.000,M,,*6F
$GPGGA,050547,3540.7696339,N,13933.6837579,E,1,9,0.846,67.409,M,38.000,M,,*6E
$GPGGA,050617,3540.7701242,N,13933.6840259,E,1,9,0.846,63.888,M,38.000,M,,*6E
$GPGGA,050647,3540.7694905,N,13933.6844637,E,1,9,0.846,64.425,M,38.000,M,,*6A
$GPGGA,050717,3540.7690942,N,13933.6841567,E,1,9,0.846,64.745,M,38.000,M,,*6F
$GPGGA,050747,3540.7706566,N,13933.6836119,E,1,9,0.846,65.291,M,38.000,M,,*6E
$GPGGA,050817,3540.7712985,N,13933.6840033,E,1,9,0.846,63.665,M,38.000,M,,*61
$GPGGA,050847,3540.7711054,N,13933.6841111,E,1,9,0.846,63.424,M,38.000,M,,*65
$GPGGA,050917,3540.7706755,N,13933.6841018,E,1,9,0.846,62.886,M,38.000,M,,*6C
$GPGGA,050947,3540.7709421,N,13933.6837063,E,1,9,0.846,64.241,M,38.000,M,,*6C
$GPGGA,051017,3540.7716569,N,13933.6843425,E,1,9,0.846,59.815,M,38.000,M,,*62
$GPGGA,051047,3540.7709963,N,13933.6847602,E,1,9,0.846,60.303,M,38.000,M,,*6A
$GPGGA,051117,3540.7712011,N,13933.6856594,E,1,9,0.846,58.085,M,38.000,M,,*62
$GPGGA,051147,3540.7729616,N,13933.6859966,E,1,9,0.846,54.520,M,38.000,M,,*66
$GPGGA,051217,3540.7724770,N,13933.6863617,E,1,9,0.846,54.430,M,38.000,M,,*6C
$GPGGA,051247,3540.7726340,N,13933.6867718,E,1,9,0.846,47.972,M,38.000,M,,*6F
$GPGGA,051317,3540.7729469,N,13933.6879943,E,1,9,0.846,47.795,M,38.000,M,,*60
$GPGGA,051347,3540.7726216,N,13933.6893035,E,1,9,0.846,39.731,M,38.000,M,,*6F
$GPGGA,051417,3540.7646275,N,13933.6870446,E,1,8,1.049,58.087,M,38.000,M,,*68
$GPGGA,051447,3540.7701071,N,13933.6832103,E,1,7,1.242,66.467,M,38.000,M,,*6A
$GPGGA,051517,3540.7706049,N,13933.6828527,E,1,7,1.240,67.990,M,38.000,M,,*6D
$GPGGA,051547,3540.7708156,N,13933.6835582,E,1,7,1.239,67.913,M,38.000,M,,*6F
$GPGGA,051617,3540.7704510,N,13933.6831493,E,1,7,1.237,65.995,M,38.000,M,,*64
$GPGGA,051647,3540.7704557,N,13933.6830927,E,1,7,1.236,68.143,M,38.000,M,,*6E
$GPGGA,051717,3540.7700644,N,13933.6830854,E,1,7,1.235,67.598,M,38.000,M,,*64
$GPGGA,051747,3540.7705051,N,13933.6830362,E,1,7,1.233,68.064,M,38.000,M,,*67
$GPGGA,051817,3540.7705698,N,13933.6829706,E,1,7,1.232,66.757,M,38.000,M,,*68
$GPGGA,051847,3540.7708522,N,13933.6836041,E,1,7,1.230,67.254,M,38.000,M,,*6D
$GPGGA,051917,3540.7705183,N,13933.6831765,E,1,8,1.142,68.337,M,38.000,M,,*6F
$GPGGA,051947,3540.7706254,N,13933.6833722,E,1,9,1.051,69.106,M,38.000,M,,*62
$GPGGA,052017,3540.7703703,N,13933.6834477,E,1,9,1.050,66.875,M,38.000,M,,*68
$GPGGA,052047,3540.7704754,N,13933.6827452,E,1,9,1.049,67.446,M,38.000,M,,*68
$GPGGA,052117,3540.7704714,N,13933.6828625,E,1,9,1.048,67.567,M,38.000,M,,*66
$GPGGA,052147,3540.7711454,N,13933.6834098,E,1,9,1.047,67.879,M,38.000,M,,*60
$GPGGA,052217,3540.7704878,N,13933.6830930,E,1,9,1.046,65.630,M,38.000,M,,*6F
$GPGGA,052247,3540.7695492,N,13933.6826435,E,1,9,1.045,66.104,M,38.000,M,,*64
$GPGGA,052317,3540.7708872,N,13933.6830515,E,1,9,1.044,66.667,M,38.000,M,,*60
$GPGGA,052347,3540.7706383,N,13933.6831183,E,1,9,1.043,66.107,M,38.000,M,,*62
$GPGGA,052417,3540.7697384,N,13933.6826809,E,1,9,1.042,65.674,M,38.000,M,,*62
$GPGGA,052447,3540.7703369,N,13933.6829397,E,1,9,1.041,66.401,M,38.000,M,,*6B
$GPGGA,052517,3540.7702871,N,13933.6827046,E,1,9,1.040,67.393,M,38.000,M,,*61
$GPGGA,052547,3540.7697636,N,13933.6825585,E,1,9,1.039,66.630,M,38.000,M,,*6F
$GPGGA,052617,3540.7700317,N,13933.6828786,E,1,9,1.038,67.062,M,38.000,M,,*6D
$GPGGA,052647,3540.7702072,N,13933.6831276,E,1,9,1.036,67.588,M,38.000,M,,*67
$GPGGA,052717,3540.7699681,N,13933.6831466,E,1,9,1.035,65.358,M,38.000,M,,*67
$GPGGA,052747,3540.7706873,N,13933.6828746,E,1,9,1.034,66.212,M,38.000,M,,*62
$GPGGA,052817,3540.7698619,N,13933.6830123,E,1,9,1.033,65.206,M,38.000,M,,*61
$GPGGA,052847,3540.7699626,N,13933.6828198,E,1,9,1.032,66.814,M,38.000,M,,*6B
$GPGGA,052917,3540.7701119,N,13933.6829797,E,1,9,1.031,64.312,M,38.000,M,,*60
$GPGGA,052947,3540.7694097,N,13933.6823701,E,1,9,1.030,65.178,M,38.000,M,,*64
$GPGGA,053017,3540.7690297,N,13933.6824788,E,1,9,1.029,63.819,M,38.000,M,,*69
$GPGGA,053047,3540.7689561,N,13933.6825523,E,1,9,1.028,65.289,M,38.000,M,,*6C
$GPGGA,053117,3540.7687214,N,13933.6826648,E,1,9,1.027,64.646,M,38.000,M,,*67
$GPGGA,053147,3540.7685205,N,13933.6825616,E,1,9,1.026,64.126,M,38.000,M,,*68
$GPGGA,053217,3540.7673075,N,13933.6823051,E,1,9,1.024,63.518,M,38.000,M,,*6D
$GPGGA,053247,3540.7669544,N,13933.6828414,E,1,9,1.023,63.315,M,38.000,M,,*66
$GPGGA,053317,3540.7660861,N,13933.6824243,E,1,9,1.022,62.416,M,38.000,M,,*6D
$GPGGA,053347,3540.7660191,N,13933.6825801,E,1,9,1.021,61.314,M,38.000,M,,*66
$GPGGA,053417,3540.7634523,N,13933.6816266,E,1,9,1.020,59.112,M,38.000,M,,*6D
$GPGGA,053447,3540.7623935,N,13933.6815244,E,1,9,1.019,57.481,M,38.000,M,,*6D
$GPGGA,053517,3540.7612179,N,13933.6811098,E,1,9,1.018,56.227,M,38.000,M,,*66
$GPGGA,053547,3540.7705792,N,13933.6829673,E,1,7,1.763,67.272,M,38.000,M,,*68
$GPGGA,053617,3540.7712634,N,13933.6828005,E,1,8,1.181,67.379,M,38.000,M,,*6C
$GPGGA,053647,3540.7707455,N,13933.6828627,E,1,8,1.178,65.944,M,38.000,M,,*6E
$GPGGA,053717,3540.7702094,N,13933.6827025,E,1,8,1.176,67.514,M,38.000,M,,*68
$GPGGA,053747,3540.7712936,N,13933.6829422,E,1,8,1.173,65.843,M,38.000,M,,*68
$GPGGA,053817,3540.7699741,N,13933.6827712,E,1,8,1.170,64.317,M,38.000,M,,*68
$GPGGA,053847,3540.7697080,N,13933.6823473,E,1,8,1.168,65.878,M,38.000,M,,*63
$GPGGA,053917,3540.7708615,N,13933.6830385,E,1,8,1.165,68.215,M,38.000,M,,*67
$GPGGA,053947,3540.7701544,N,13933.6831995,E,1,8,1.163,68.441,M,38.000,M,,*67
$GPGGA,054017,3540.7699824,N,13933.6828141,E,1,8,1.160,64.784,M,38.000,M,,*6B
$GPGGA,054047,3540.7702673,N,13933.6834960,E,1,8,1.158,69.427,M,38.000,M,,*6B
$GPGGA,054117,3540.7706377,N,13933.6830422,E,1,9,0.946,65.819,M,38.000,M,,*6F
$GPGGA,054147,3540.7710820,N,13933.6827381,E,1,9,0.947,64.047,M,38.000,M,,*6F
$GPGGA,054217,3540.7706824,N,13933.6828442,E,1,9,0.947,65.322,M,38.000,M,,*6C
$GPGGA,054247,3540.7706825,N,13933.6841095,E,1,9,0.947,68.574,M,38.000,M,,*61
$GPGGA,054317,3540.7703410,N,13933.6829359,E,1,9,0.947,65.551,M,38.000,M,,*6D
$GPGGA,054347,3540.7706830,N,13933.6833608,E,1,9,0.947,67.336,M,38.000,M,,*6C
$GPGGA,054417,3540.7704479,N,13933.6832552,E,1,8,1.074,65.865,M,38.000,M,,*66
$GPGGA,054447,3540.7711561,N,13933.6826740,E,1,9,0.947,64.934,M,38.000,M,,*66
$GPGGA,054517,3540.7705270,N,13933.6827680,E,1,9,0.948,65.143,M,38.000,M,,*6A
$GPGGA,054547,3540.7704094,N,13933.6830027,E,1,9,0.948,66.407,M,38.000,M,,*6D
$GPGGA,054617,3540.7709342,N,13933.6829438,E,1,9,0.948,65.430,M,38.000,M,,*6B
$GPGGA,054647,3540.7709084,N,13933.6827805,E,1,9,0.948,65.631,M,38.000,M,,*68
$GPGGA,054717,3540.7707974,N,13933.6828821,E,1,9,0.948,66.448,M,38.000,M,,*62
$GPGGA,054747,3540.7703705,N,13933.6825578,E,1,9,0.948,66.458,M,38.000,M,,*66
$GPGGA,054817,3540.7699228,N,13933.6824482,E,1,9,0.949,66.473,M,38.000,M,,*69
$GPGGA,054847,3540.7710476,N,13933.6828862,E,1,9,0.949,65.190,M,38.000,M,,*64
$GPGGA,054917,3540.7703928,N,13933.6825735,E,1,9,0.949,67.280,M,38.000,M,,*64
$GPGGA,054947,3540.7709660,N,13933.6823709,E,1,9,0.949,64.505,M,38.000,M,,*68
$GPGGA,055017,3540.7705603,N,13933.6823721,E,1,9,0.949,64.955,M,38.000,M,,*6F
$GPGGA,055047,3540.7705083,N,13933.6811684,E,1,9,0.949,61.879,M,38.000,M,,*61
$GPGGA,055117,3540.7709964,N,13933.6812054,E,1,7,1.405,64.509,M,38.000,M,,*64
$GPGGA,055147,3540.7700410,N,13933.6815332,E,1,8,1.000,61.895,M,38.000,M,,*61
$GPGGA,055217,3540.7707128,N,13933.6811910,E,1,9,0.950,61.155,M,38.000,M,,*69
$GPGGA,055247,3540.7713602,N,13933.6814373,E,1,8,1.096,68.047,M,38.000,M,,*64
$GPGGA,055317,3540.7708485,N,13933.6830032,E,1,7,1.140,67.093,M,38.000,M,,*64
$GPGGA,055347,3540.7721464,N,13933.6806591,E,1,8,1.099,66.795,M,38.000,M,,*66
$GPGGA,055417,3540.7715006,N,13933.6804102,E,1,8,1.100,71.324,M,38.000,M,,*66
$GPGGA,055447,3540.7711231,N,13933.6827398,E,1,7,1.144,64.157,M,38.000,M,,*6C
$GPGGA,055517,3540.7708963,N,13933.6829496,E,1,5,1.560,65.663,M,38.000,M,,*6A
$GPGGA,055547,3540.7718480,N,13933.6825788,E,1,6,1.569,62.961,M,38.000,M,,*6E
$GPGGA,055617,3540.7714662,N,13933.6820431,E,1,6,1.573,66.724,M,38.000,M,,*6E
$GPGGA,055647,3540.7709866,N,13933.6827809,E,1,8,1.107,66.161,M,38.000,M,,*63
$GPGGA,055717,3540.7706682,N,13933.6828761,E,1,8,1.108,66.313,M,38.000,M,,*6A
$GPGGA,055747,3540.7708348,N,13933.6827542,E,1,8,1.110,65.846,M,38.000,M,,*6F
$GPGGA,055817,3540.7704908,N,13933.6831060,E,1,8,1.111,66.048,M,38.000,M,,*61
$GPGGA,055847,3540.7707091,N,13933.6830092,E,1,8,1.112,66.914,M,38.000,M,,*61
$GPGGA,055917,3540.7705863,N,13933.6829379,E,1,8,1.114,67.097,M,38.000,M,,*69
$GPGGA,055947,3540.7703859,N,13933.6830070,E,1,8,1.115,67.040,M,38.000,M,,*6A
$GPGGA,060017,3540.7703971,N,13933.6827340,E,1,8,1.116,65.413,M,38.000,M,,*6E
$GPGGA,060047,3540.7707023,N,13933.6828642,E,1,8,1.117,65.755,M,38.000,M,,*69
$GPGGA,060117,3540.7700883,N,13933.6827021,E,1,8,1.118,66.181,M,38.000,M,,*67
$GPGGA,060147,3540.7706534,N,13933.6828544,E,1,8,1.120,66.666,M,38.000,M,,*69
$GPGGA,060217,3540.7704651,N,13933.6833209,E,1,8,1.121,67.349,M,38.000,M,,*61
$GPGGA,060247,3540.7702784,N,13933.6831165,E,1,8,1.122,65.457,M,38.000,M,,*69
$GPGGA,060317,3540.7707547,N,13933.6824588,E,1,8,1.123,65.141,M,38.000,M,,*65
$GPGGA,060347,3540.7707051,N,13933.6828482,E,1,8,1.124,66.264,M,38.000,M,,*65
$GPGGA,060417,3540.7702510,N,13933.6833892,E,1,8,1.125,66.627,M,38.000,M,,*67
$GPGGA,060447,3540.7703869,N,13933.6834238,E,1,8,1.126,68.055,M,38.000,M,,*63
$GPGGA,060517,3540.7701221,N,13933.6826175,E,1,9,1.001,66.659,M,38.000,M,,*6B
$GPGGA,060547,3540.7710040,N,13933.6825154,E,1,9,1.002,66.124,M,38.000,M,,*65
$GPGGA,060617,3540.7706534,N,13933.6829590,E,1,9,1.003,66.284,M,38.000,M,,*6A
$GPGGA,060647,3540.7707783,N,13933.6828656,E,1,9,1.004,65.388,M,38.000,M,,*61
$GPGGA,060717,3540.7706222,N,13933.6824546,E,1,9,1.006,67.204,M,38.000,M,,*61
$GPGGA,060747,3540.7701949,N,13933.6829001,E,1,9,1.007,65.422,M,38.000,M,,*6F
$GPGGA,060817,3540.7708930,N,13933.6826139,E,1,9,1.008,65.198,M,38.000,M,,*6C
$GPGGA,060847,3540.7706650,N,13933.6828236,E,1,9,1.009,65.813,M,38.000,M,,*67
$GPGGA,060917,3540.7707326,N,13933.6829587,E,1,9,1.010,66.083,M,38.000,M,,*60
$GPGGA,060947,3540.7710295,N,13933.6826617,E,1,9,1.011,64.966,M,38.000,M,,*6E
$GPGGA,061017,3540.7704969,N,13933.6827732,E,1,9,1.012,66.136,M,38.000,M,,*65
$GPGGA,061047,3540.7708162,N,13933.6829585,E,1,9,1.013,65.772,M,38.000,M,,*6B
$GPGGA,061117,3540.7706343,N,13933.6825503,E,1,9,1.014,66.400,M,38.000,M,,*60
$GPGGA,061147,3540.7708183,N,13933.6829422,E,1,9,1.015,64.730,M,38.000,M,,*68
$GPGGA,061217,3540.7712013,N,13933.6823266,E,1,9,1.016,66.529,M,38.000,M,,*6A
$GPGGA,061247,3540.7708348,N,13933.6826176,E,1,9,1.016,65.354,M,38.000,M,,*61
$GPGGA,061317,3540.7707116,N,13933.6825416,E,1,9,1.017,65.105,M,38.000,M,,*64
$GPGGA,061347,3540.7711998,N,13933.6825617,E,1,9,1.018,63.907,M,38.000,M,,*68
$GPGGA,061417,3540.7709461,N,13933.6829297,E,1,9,1.019,66.052,M,38.000,M,,*65
$GPGGA,061447,3540.7706633,N,13933.6827990,E,1,9,1.020,66.369,M,38.000,M,,*69
$GPGGA,061517,3540.7706742,N,13933.6824659,E,1,9,1.020,66.106,M,38.000,M,,*68
$GPGGA,061547,3540.7710577,N,13933.6826637,E,1,9,1.021,64.911,M,38.000,M,,*69
$GPGGA,061617,3540.7710960,N,13933.6828228,E,1,9,1.022,62.667,M,38.000,M,,*6A
$GPGGA,061647,3540.7710876,N,13933.6825855,E,1,9,1.022,65.281,M,38.000,M,,*6F
$GPGGA,061717,3540.7710388,N,13933.6824757,E,1,9,1.023,63.297,M,38.000,M,,*6D
$GPGGA,061747,3540.7708387,N,13933.6830048,E,1,9,1.023,63.111,M,38.000,M,,*6F
$GPGGA,061817,3540.7709498,N,13933.6829261,E,1,9,1.024,62.205,M,38.000,M,,*6C
$GPGGA,061847,3540.7715562,N,13933.6825030,E,1,9,1.024,61.278,M,38.000,M,,*63
